,City,Cloudiness,Country,Date,Humidity,Latitude,Longitude,Maximum Temperature,Wind Speed
0,Qaanaaq,100,GL,1578094154,96,77.48,-69.36,232.37,2.39
1,Kapaa,75,US,1578094154,69,22.08,-159.32,299.15,8.2
2,Port-Cartier,90,CA,1578093930,79,50.03,-66.88,267.59,0.7
3,San Luis de la Paz,76,MX,1578094155,19,21.3,-100.52,294.26,3.13
4,Huarmey,86,PE,1578094118,75,-10.07,-78.15,294.59,2.27
5,Marzuq,0,YE,1578094155,84,14.4,46.47,287.55,1.19
6,Hami,0,CN,1578094155,66,42.84,93.51,263.62,1.23
7,Mahebourg,40,MU,1578094156,100,-20.41,57.7,297.59,1.5
8,Port Alfred,100,ZA,1578094156,97,-33.59,26.89,293.71,0.45
9,Atuona,4,PF,1578094156,71,-9.8,-139.03,300.17,6.69
10,Maturin,17,VE,1578094100,95,9.75,-63.18,295.5,2.81
11,Pisco,40,PE,1578093881,30,-13.71,-76.2,295.15,8.7
12,Bongued,53,PH,1578094157,73,7.12,124.4,297.8,0.97
13,Chanika,99,MW,1578094157,94,-12.93,34.19,293.29,0.09
14,Podosinovets,100,RU,1578094157,91,60.28,47.06,272.77,5.53
15,Hasaki,20,JP,1578094157,51,35.73,140.83,275.37,1.0
16,Yellowknife,75,CA,1578094157,84,62.45,-114.38,257.15,3.6
17,Paracatu,61,BR,1578094157,91,-17.22,-46.87,295.02,1.8
18,Puerto Ayora,20,EC,1578093874,65,-0.74,-90.35,300.15,7.7
19,Wawa,90,NG,1578094158,32,9.9,4.41,294.96,3.67
20,Tura,100,RU,1578094158,99,64.27,100.22,251.72,0.25
21,Luxor,34,EG,1578094158,70,25.7,32.65,282.15,2.1
22,Avarua,0,CK,1578094159,69,-21.21,-159.78,300.15,7.2
23,Laguna,40,BZ,1578094159,78,16.17,-88.94,300.15,1.36
24,Caravelas,100,BR,1578094159,93,-17.73,-39.27,296.95,4.44
25,Longyearbyen,75,NO,1578094159,54,78.22,15.63,258.15,4.1
26,Saint-Philippe,90,CA,1578093873,93,45.36,-73.48,277.15,2.6
27,Albany,90,US,1578093902,80,42.65,-73.75,279.26,1.01
28,Hilo,40,US,1578093885,58,19.71,-155.08,301.15,3.6
29,Axim,56,GH,1578094160,65,4.87,-2.24,296.62,0.99
30,Arraial do Cabo,75,BR,1578094161,88,-22.97,-42.02,298.15,3.1
31,Sola,100,TZ,1578094161,81,-3.17,33.8,291.04,2.64
32,Mataura,99,NZ,1578094161,65,-46.19,168.86,285.37,7.6
33,Saskylakh,91,RU,1578094161,97,71.97,114.09,246.58,2.78
34,Sobolevo,48,RU,1578093916,92,54.43,31.9,271.06,4.67
35,San Carlos de Bariloche,20,AR,1578094162,40,-41.13,-71.31,295.15,8.2
36,Busselton,0,AU,1578094162,35,-33.64,115.35,291.48,4.31
37,Ushuaia,75,AR,1578094162,66,-54.81,-68.31,283.15,8.2
38,Severo-Kurilsk,100,RU,1578094162,86,50.68,156.12,268.67,7.04
39,Luganville,40,VU,1578094163,74,-15.51,167.18,302.15,3.6
40,Richards Bay,72,ZA,1578094163,84,-28.77,32.06,299.11,9.81
41,Taszar,90,HU,1578094163,100,46.37,17.91,271.15,0.81
42,New Norfolk,51,AU,1578094163,33,-42.78,147.06,299.82,3.1
43,Sarkand,100,KZ,1578094164,72,45.41,79.91,265.49,1.87
44,Leningradskiy,27,RU,1578094164,75,69.38,178.42,251.58,6.26
45,Cherskiy,33,RU,1578094164,66,68.75,161.3,256.29,4.81
46,Kavieng,100,PG,1578094164,69,-2.57,150.8,302.56,1.88
47,Rikitea,100,PF,1578094164,76,-23.12,-134.97,299.66,4.77
48,Savannakhet,99,TH,1578094165,85,16.57,104.76,291.51,3.5
49,Hermanus,2,ZA,1578094165,81,-34.42,19.24,292.04,6.79
50,Posse,95,BR,1578094165,90,-14.08,-46.36,295.71,2.26
51,Kibaya,100,RW,1578094165,95,-2.2,30.56,288.47,0.87
52,Chapais,90,CA,1578094165,92,49.78,-74.86,271.15,5.7
53,Pozo Colorado,1,PY,1578094166,47,-23.49,-58.8,300.03,1.01
54,Manggar,21,ID,1578094166,82,-2.88,108.27,300.98,7.32
55,Augusto Correa,92,BR,1578094166,93,-1.02,-46.63,297.82,1.89
56,Cootamundra,0,AU,1578094166,16,-34.64,148.03,312.76,9.77
57,Qaqortoq,100,GL,1578094167,34,60.72,-46.03,274.15,19.0
58,Bluff,54,AU,1578094167,56,-23.58,149.07,299.09,5.23
59,Mokhotlong,72,LS,1578094167,75,-29.29,29.06,282.76,0.88
60,Bredasdorp,11,ZA,1578094167,68,-34.53,20.04,294.15,1.0
61,Upington,0,ZA,1578094168,24,-28.46,21.24,299.15,2.6
62,Barrow,0,AR,1578094168,54,-38.31,-60.23,295.98,4.1
63,Tuy Hoa,100,VN,1578094168,77,13.08,109.3,297.35,9.46
64,Kruisfontein,50,ZA,1578094168,91,-34.0,24.73,292.76,1.01
65,Cape Town,6,ZA,1578093829,88,-33.93,18.42,292.59,5.7
66,Miri,79,NG,1578094169,36,10.31,9.75,286.19,2.95
67,Codrington,0,AU,1578094169,45,-28.95,153.24,302.04,3.1
68,Abu Samrah,100,SY,1578094169,86,35.3,37.18,280.95,0.79
69,Villarrica,0,CL,1578093891,73,-39.28,-72.23,297.04,6.2
70,Airai,93,TL,1578094170,81,-8.93,125.41,296.85,0.52
71,Lebu,75,ET,1578094170,67,8.96,38.73,287.15,2.1
72,Castro,20,CL,1578094170,55,-42.48,-73.76,290.15,6.2
73,Tuatapere,100,NZ,1578093921,65,-46.13,167.69,285.37,7.6
74,Christchurch,92,NZ,1578093898,55,-43.53,172.64,291.48,5.7
75,Portobelo,40,PA,1578094171,74,9.55,-79.65,302.15,2.1
76,Kavaratti,96,IN,1578094171,79,10.57,72.64,300.29,6.62
77,Alofi,75,NU,1578094172,69,-19.06,-169.92,300.15,2.6
78,Petropavlovsk-Kamchatskiy,31,RU,1578094172,84,53.05,158.65,258.15,2.0
79,San Patricio,10,PY,1578094172,49,-26.98,-56.83,299.74,3.11
80,Vanimo,100,PG,1578094172,78,-2.67,141.3,301.04,6.23
81,Brae,100,GB,1578094172,64,60.4,-1.35,277.15,8.7
82,Great Yarmouth,81,GB,1578094172,86,52.61,1.73,278.15,6.2
83,Dikson,46,RU,1578094173,94,73.51,80.55,251.28,6.93
84,Iranshahr,59,IR,1578094173,75,27.21,60.69,288.77,0.45
85,Georgetown,20,GY,1578094173,74,6.8,-58.16,300.15,2.1
86,Hobart,92,AU,1578094161,33,-42.88,147.33,299.82,3.1
87,Half Moon Bay,1,US,1578094174,55,37.46,-122.43,291.48,1.87
88,Khani,51,GE,1578094174,52,41.96,42.96,281.15,10.3
89,Ancud,20,CL,1578094174,55,-41.87,-73.83,290.15,6.2
90,Tutoia,100,BR,1578094174,92,-2.76,-42.27,298.08,2.33
91,Ribeira Grande,88,PT,1578094174,90,38.52,-28.7,289.19,6.82
92,Thompson,90,CA,1578094174,92,55.74,-97.86,262.15,3.1
93,Puro,92,PH,1578094175,86,13.13,123.76,297.94,6.23
94,Homer,90,US,1578094175,57,59.64,-151.54,267.15,3.6
95,Punta Arenas,40,CL,1578094175,57,-53.16,-70.91,284.15,3.6
96,La Baneza,90,ES,1578094176,91,42.3,-5.9,278.71,0.5
97,Krasnoznamensk,100,RU,1578094176,92,54.94,22.49,277.16,6.07
98,Ibatiba,99,BR,1578094176,96,-20.23,-41.51,294.33,0.51
99,Walvis Bay,16,NA,1578094176,87,-22.95,14.51,289.26,3.6
100,Khatanga,100,RU,1578094176,98,71.98,102.47,253.28,2.26
101,Quimper,4,FR,1578094177,86,48.0,-4.1,279.15,3.1
102,Sao Luis,56,BR,1578094177,70,4.43,-61.14,296.22,0.61
103,Yulara,90,AU,1578094177,100,-25.24,130.99,296.15,4.6
104,Kurumkan,99,RU,1578094177,99,54.33,110.32,255.69,0.22
105,Palu,97,ID,1578094177,85,-0.9,119.87,294.67,0.67
106,Nuuk,99,GL,1578094178,73,64.17,-51.74,268.15,5.7
107,Port Hardy,90,CA,1578094178,100,50.7,-127.42,282.15,7.2
108,Saint George,0,GR,1578094178,85,39.45,22.34,276.48,0.9
109,Belmonte,2,PT,1578094178,90,40.36,-7.35,280.37,0.99
110,Carnarvon,0,ZA,1578094178,62,-30.97,22.13,291.97,4.06
111,Mabamba,87,TZ,1578094179,90,-3.6,30.5,289.83,0.91
112,Moctezuma,0,MX,1578094179,38,29.81,-109.68,284.19,1.38
113,Husavik,89,CA,1578094179,92,50.56,-96.99,272.04,3.1
114,Nasice,90,HR,1578094180,92,45.49,18.09,270.15,3.1
115,Kupang,100,ID,1578094180,86,-10.16,123.6,300.07,5.95
116,Tuktoyaktuk,40,CA,1578094180,75,69.44,-133.03,244.15,5.7
117,Vardo,90,US,1578093910,87,39.62,-77.74,283.15,3.1
118,San Pedro,0,AR,1578094181,35,-33.68,-59.66,296.48,2.24
119,Bintulu,75,MY,1578093976,94,3.17,113.03,297.15,1.5
120,Praia da Vitoria,20,PT,1578094181,82,38.73,-27.07,286.15,6.99
121,Isangel,40,VU,1578094181,65,-19.55,169.27,301.15,3.6
122,Adre,0,TD,1578094181,35,13.47,22.2,286.22,7.42
123,Vilhena,40,BR,1578094182,83,-12.74,-60.15,298.15,3.6
124,Wilmington,90,US,1578094070,93,39.75,-75.55,282.59,1.5
125,Abbotsford,90,CA,1578094112,90,49.05,-122.33,288.15,7.7
126,Port Lincoln,100,AU,1578094182,72,-34.72,135.86,289.39,5.05
127,Butaritari,100,KI,1578094182,74,3.07,172.79,302.19,3.32
128,Bambous Virieux,40,MU,1578094183,100,-20.34,57.76,297.59,1.5
129,Puerto Leguizamo,38,CO,1578094183,64,-0.19,-74.78,297.91,1.19
130,Batticaloa,17,LK,1578094183,94,7.71,81.69,295.97,1.1
131,Andra,100,RU,1578094183,93,62.52,65.89,264.31,3.78
132,Jamestown,13,AU,1578094183,54,-33.21,138.6,295.08,9.07
133,Yumen,0,CN,1578094184,62,40.29,97.04,263.26,0.14
134,Fort Nelson,90,CA,1578093899,83,58.81,-122.69,250.15,2.62
135,Martapura,100,ID,1578094184,88,-3.41,114.85,297.88,1.55
136,Meadow Lake,90,CA,1578094184,72,54.13,-108.44,264.15,1.0
137,Nicoya,40,CR,1578094184,65,10.15,-85.45,301.15,3.6
138,Hamilton,90,CA,1578093610,80,43.26,-79.87,279.82,3.1
139,Sioux Lookout,90,CA,1578094185,85,50.1,-91.92,265.15,2.1
140,Balkanabat,31,TM,1578094185,75,39.51,54.36,275.43,1.96
141,Tabuk,67,PH,1578093928,84,17.41,121.44,294.77,1.74
142,Klaksvik,29,FO,1578094185,68,62.23,-6.59,273.15,10.8
143,Cabo San Lucas,5,MX,1578094162,56,22.89,-109.91,296.48,3.6
144,Porto Novo,40,BR,1578094167,77,-23.68,-45.44,294.15,2.6
145,Vestmannaeyjar,68,IS,1578094186,54,63.44,-20.27,270.56,4.71
146,Tasiilaq,100,GL,1578094186,34,65.61,-37.64,266.15,4.1
147,Batemans Bay,0,AU,1578094187,21,-35.71,150.18,310.37,4.92
148,Shumskiy,60,RU,1578094187,74,54.83,99.13,266.18,1.55
149,Dhing,78,IN,1578094187,93,26.46,92.48,287.34,0.69
150,Norman Wells,20,CA,1578094187,75,65.28,-126.83,245.15,3.1
151,Colares,0,PT,1578094188,81,38.8,-9.45,286.48,2.6
152,Hakodate,75,JP,1578094188,73,41.8,140.75,268.15,1.0
153,Ilulissat,100,GL,1578094188,48,69.22,-51.1,265.15,0.5
154,Koutsouras,12,GR,1578094189,70,35.03,25.95,284.01,13.31
155,Shimanovsk,28,RU,1578094189,95,52.0,127.67,248.22,1.98
156,Ternate,20,PH,1578094189,73,14.29,120.72,297.15,2.6
157,Viedma,0,AR,1578094189,46,-40.81,-62.99,298.41,10.85
158,Jackson,90,US,1578094162,80,43.48,-110.76,274.15,1.81
159,Salalah,20,OM,1578094190,60,17.01,54.1,295.15,2.1
160,Henties Bay,56,NA,1578094190,92,-22.12,14.28,289.26,0.89
161,Pevek,33,RU,1578094190,60,69.7,170.27,254.87,2.66
162,Arman,100,RU,1578094190,69,59.7,150.17,267.67,14.77
163,Horodnytsya,15,UA,1578094190,86,50.81,27.32,271.49,3.58
164,Buluang,40,PH,1578094191,88,10.47,123.98,298.15,2.6
165,Tiksi,98,RU,1578094191,84,71.64,128.87,245.55,3.22
166,Tautira,75,PF,1578094191,70,-17.73,-149.15,303.15,8.7
167,Vaini,27,IN,1578094191,74,15.34,74.49,289.07,0.79
168,Coolum Beach,1,AU,1578094191,60,-26.53,153.09,302.04,2.8
169,Kitimat,90,CA,1578094192,92,54.02,-128.69,272.04,7.7
170,Mount Gambier,90,AU,1578094192,82,-37.83,140.78,289.15,7.7
171,Poum,0,MK,1578094192,36,41.28,20.71,273.64,0.67
172,Kodiak,1,US,1578094192,64,39.95,-94.76,278.15,4.1
173,Broome,81,GB,1578094192,86,52.47,1.45,278.15,6.2
174,Matagami,97,NG,1578094193,34,9.67,8.4,289.81,3.09
175,Chuy,0,UY,1578094193,79,-33.69,-53.46,292.19,3.94
176,Pasinler,75,TR,1578094193,85,39.98,41.67,268.15,4.1
177,Kijang,81,KR,1578094193,47,35.24,129.21,274.15,3.6
178,Wajid,27,SO,1578094193,48,3.81,43.25,298.47,6.71
179,East London,100,ZA,1578094194,95,-33.02,27.91,296.65,6.34
180,Yerbogachen,100,RU,1578094194,96,61.28,108.01,262.32,1.7
181,Bowen,40,AU,1578094194,58,-20.01,148.25,303.15,7.2
182,Matamoros,1,US,1578094194,25,25.87,-97.51,296.15,8.7
183,Broken Hill,0,AU,1578094194,30,-31.97,141.45,301.15,11.3
184,Ixtapa,75,MX,1578093905,57,20.71,-105.21,297.15,3.1
185,Guanica,40,PR,1578094195,86,17.97,-66.91,298.71,5.7
186,Lima,33,PE,1578094195,78,-12.06,-77.04,296.15,7.7
187,Aktau,0,KZ,1578094196,92,43.65,51.16,265.15,2.0
188,Chernyshevskiy,100,RU,1578094196,97,63.01,112.47,254.73,0.91
189,Grand Gaube,40,MU,1578093936,100,-20.01,57.66,297.59,1.5
190,Shimoda,75,JP,1578094196,61,34.7,138.93,283.15,4.1
191,Turukhansk,100,RU,1578093902,96,65.8,87.96,252.49,4.83
192,Mackenzie,90,CA,1578094197,92,55.34,-123.09,265.15,1.0
193,Saint-Georges,100,CA,1578093909,91,46.12,-70.67,275.93,1.34
194,Waipawa,45,NZ,1578094197,53,-39.94,176.59,293.15,4.47
195,Palian,0,PK,1578094197,42,27.6,68.82,285.75,1.22
196,Iqaluit,75,CA,1578094197,84,63.75,-68.52,259.15,1.0
197,Ahipara,98,NZ,1578094198,61,-35.17,173.16,298.71,1.79
198,Nanortalik,96,GL,1578094198,64,60.14,-45.24,271.67,4.55
199,Luziania,40,BR,1578094198,83,-16.25,-47.95,296.15,3.1
200,Vostok,11,RU,1578094198,94,46.45,135.83,249.17,2.1
201,Lagoa,20,PT,1578094198,76,37.14,-8.45,285.37,2.6
202,Novyy Urgal,16,RU,1578094199,98,51.07,132.56,239.09,0.23
203,Gumdag,49,TM,1578094199,65,39.2,54.59,277.97,6.14
204,Esso,82,RU,1578094199,95,55.93,158.7,262.31,2.1
205,Huamachuco,97,PE,1578094199,94,-7.82,-78.05,281.85,3.23
206,Mahibadhoo,9,MV,1578094199,78,3.78,72.97,300.83,3.06
207,Mana,6,NG,1578094200,21,13.03,5.27,288.0,6.77
208,Fortuna,20,US,1578094200,62,40.6,-124.16,289.26,2.1
209,Poya,17,NC,1578094200,77,-21.35,165.16,297.47,5.94
210,Cap Malheureux,40,MU,1578094200,100,-19.98,57.61,297.59,1.5
211,Malanje,100,AO,1578094200,97,-9.54,16.35,290.23,1.43
212,Provideniya,0,RU,1578094201,70,64.42,-173.23,247.72,4.19
213,Talnakh,75,RU,1578094201,77,69.49,88.39,254.15,7.0
214,Sorong,78,ID,1578093904,90,-0.86,131.25,299.97,2.57
215,Andapa,97,MG,1578094202,84,-14.66,49.65,290.3,1.7
216,Acapulco,40,MX,1578093929,65,16.86,-99.88,301.15,3.1
217,Torata,75,EC,1578094202,70,-3.6,-79.89,305.15,4.6
218,Samarai,59,PG,1578094202,63,-10.62,150.67,303.31,1.4
219,Ostrovnoy,95,RU,1578094202,83,68.05,39.51,272.74,10.1
220,Kiama,0,AU,1578094203,32,-34.67,150.86,309.15,3.1
221,Streamwood,90,US,1578094203,80,42.03,-88.18,275.37,1.5
222,Texarkana,90,US,1578094203,76,33.44,-94.04,288.15,2.6
223,Griffith,0,AU,1578094204,16,-34.29,146.06,313.15,6.7
224,Mar del Plata,80,AR,1578094204,47,-46.43,-67.52,293.72,6.86
225,Santander,8,PH,1578094204,81,9.42,123.33,299.57,9.55
226,Tikhvin,100,RU,1578094204,94,59.64,33.53,274.82,2.68
227,Santa Cruz,46,BR,1578094174,83,-6.22,-36.02,296.84,2.96
228,Denpasar,20,ID,1578094010,83,-8.65,115.22,301.15,6.7
229,Hithadhoo,44,MV,1578094205,66,-0.6,73.08,301.35,1.45
230,Tarakan,100,ID,1578094205,85,3.3,117.63,298.31,2.93
231,Bogorodskoye,100,RU,1578094206,97,52.37,140.44,253.83,1.98
232,Peru,90,US,1578094206,79,41.33,-89.13,275.93,2.1
233,Cidreira,8,BR,1578094206,79,-30.17,-50.22,295.87,12.11
234,Rocha,7,UY,1578094206,90,-34.48,-54.34,289.15,2.8
235,Meulaboh,25,ID,1578094206,78,4.14,96.13,299.86,2.05
236,Tawau,75,MY,1578094207,94,4.26,117.89,297.15,1.78
237,Solwezi,100,ZM,1578094207,99,-12.18,26.4,290.52,1.11
238,Cerritos,1,US,1578094057,35,33.86,-118.05,296.15,2.29
239,Takhtamygda,16,RU,1578094208,95,54.1,123.57,245.62,0.97
240,Carbonia,40,IT,1578094208,81,39.17,8.53,284.15,1.5
241,Cayenne,75,GF,1578094097,78,4.94,-52.33,300.15,2.6
242,Puerto Baquerizo Moreno,40,EC,1578094208,74,-0.9,-89.6,299.15,6.7
243,Iberia,96,PE,1578093924,96,-11.41,-69.49,295.97,0.86
244,Bethel,1,US,1578094209,76,60.79,-161.76,250.15,6.2
245,Obo,98,CF,1578094209,28,5.39,26.49,299.25,1.61
246,Comodoro Rivadavia,20,AR,1578094209,30,-45.87,-67.48,301.15,9.8
247,Nhulunbuy,75,AU,1578094210,62,-12.18,136.78,304.15,3.6
248,Hun,75,BE,1578094210,86,50.34,4.87,278.71,2.6
249,Quelimane,40,MZ,1578094210,88,-17.88,36.89,301.15,1.5
250,Saint Anthony,90,US,1578094210,79,43.97,-111.68,274.15,2.1
251,Adrar,100,DZ,1578093963,33,27.87,-0.29,281.15,4.6
252,Kropotkin,0,RU,1578094211,74,45.43,40.58,273.15,2.32
253,Pasni,30,PK,1578094211,84,25.26,63.48,290.95,0.92
254,Vegreville,100,CA,1578094211,72,53.5,-112.05,267.04,4.02
255,Upernavik,100,GL,1578094211,99,72.79,-56.15,248.89,7.72
256,Nueva Gerona,37,CU,1578094211,81,21.88,-82.8,299.15,5.23
257,Teguldet,100,RU,1578094211,94,57.31,88.17,268.41,3.98
258,Karratha,23,AU,1578094212,77,-20.74,116.85,301.92,6.31
259,Auka,99,HN,1578094212,81,14.93,-83.83,297.16,2.37
260,Camacha,20,PT,1578094212,67,33.08,-16.33,291.15,3.6
261,Phangnga,20,TH,1578094212,83,8.45,98.53,297.15,1.34
262,Clyde River,5,CA,1578094212,73,70.47,-68.59,238.15,6.7
263,Florida,54,UY,1578094213,66,-34.1,-56.21,293.61,6.15
264,Saint-Pierre,90,FR,1578094213,87,48.95,4.24,281.15,5.1
265,Sunbury,6,AU,1578094214,34,-37.58,144.73,302.59,5.1
266,Bandar-e Anzali,100,IR,1578094214,88,37.47,49.46,283.44,5.32
267,Champerico,40,MX,1578094214,45,16.38,-93.6,302.15,3.6
268,Sol-Iletsk,98,RU,1578094215,95,51.16,55.0,267.24,4.82
269,Goedereede,53,NL,1578094206,75,51.82,3.98,281.15,10.8
270,Ratnagiri,0,IN,1578094204,92,16.98,73.3,288.99,0.62
271,Balotra,0,IN,1578094216,37,25.83,72.24,286.68,2.87
272,Westport,90,US,1578094216,93,41.14,-73.36,281.48,2.1
273,Muravlenko,99,RU,1578094216,91,63.79,74.5,259.46,8.82
274,Ponta do Sol,96,BR,1578094216,94,-20.63,-46.0,293.95,3.33
275,Kysyl-Syr,100,RU,1578094217,95,63.9,122.77,239.54,4.34
276,Tam Ky,75,VN,1578094217,94,15.57,108.48,295.15,1.0
277,Faya,0,SA,1578094217,76,18.39,42.45,287.15,2.49
278,Saint-Leu,100,RE,1578094217,88,-21.15,55.28,297.15,1.5
279,Kaitangata,100,NZ,1578094218,69,-46.28,169.85,283.22,15.66
280,Lata,29,IN,1578094218,78,30.78,78.62,256.76,3.91
281,Auki,73,NG,1578094218,20,12.18,6.51,288.79,8.09
282,Conakry,24,GN,1578094218,61,9.52,-13.7,299.15,2.1
283,Sfantu Gheorghe,5,RO,1578094219,55,44.65,26.83,275.15,2.6
284,Ayan,98,IR,1578094219,76,38.23,44.7,264.02,1.92
285,San Jeronimo,67,PE,1578094219,95,-13.65,-73.37,284.43,2.24
286,Trincomalee,6,LK,1578094219,97,8.58,81.23,295.78,0.47
287,Senanga,71,ZM,1578094219,88,-16.1,23.3,294.11,0.72
288,Emerald,75,AU,1578094220,51,-23.53,148.16,301.15,4.6
289,Namibe,100,AO,1578094220,95,-15.19,12.15,295.45,1.34
290,Sabang,4,PH,1578094220,87,13.8,121.11,297.59,2.68
291,Manono,100,CD,1578094220,98,-7.3,27.4,293.64,2.65
292,Sao Filipe,93,CV,1578094220,68,14.9,-24.5,295.41,4.88
293,Soledade,72,BR,1578094221,65,-7.06,-36.37,300.15,6.7
294,Souillac,90,FR,1578094221,100,45.6,-0.6,282.59,2.1
295,Tulun,81,RU,1578094221,72,54.56,100.58,263.78,2.06
296,Ashland,90,US,1578093922,100,38.48,-82.64,285.93,1.5
297,Pitsunda,42,GE,1578094222,69,43.16,40.34,275.15,1.8
298,Shieli,100,KZ,1578094222,83,44.18,66.74,276.29,4.51
299,Harper,1,US,1578094084,35,30.3,-99.24,288.15,6.7
300,Kahului,75,US,1578093960,94,20.89,-156.47,297.04,7.7
301,Chokurdakh,29,RU,1578094223,96,70.62,147.9,245.77,2.68
302,Okha,99,RU,1578094223,95,53.59,142.95,256.24,5.92
303,Melfi,5,IT,1578094224,93,41.0,15.66,278.15,2.1
304,Saldanha,5,PT,1578094224,94,41.42,-6.55,277.68,1.56
305,Doka,35,SD,1578094224,33,13.52,35.76,295.35,6.65
306,Dhuburi,0,IN,1578094225,93,26.03,89.97,286.89,2.38
307,Pavilosta,100,LV,1578094225,93,56.89,21.19,278.15,4.1
308,Sept-Iles,90,CA,1578094205,85,50.2,-66.38,267.59,2.1
309,Manado,20,ID,1578094226,100,1.49,124.85,297.15,0.5
310,Nizwa,0,OM,1578094226,57,22.93,57.53,288.56,0.12
311,Ornskoldsvik,62,SE,1578094226,54,63.29,18.72,273.15,6.7
312,Umm Kaddadah,84,SD,1578094227,32,13.6,26.69,288.07,7.03
313,Hambantota,15,LK,1578094227,84,6.12,81.12,299.11,6.33
314,Ovsyanka,58,RU,1578094227,97,53.58,126.91,243.69,0.33
315,Mascote,99,BR,1578094227,97,-15.56,-39.3,295.6,1.0
316,Whitianga,63,NZ,1578094227,60,-36.83,175.7,293.15,6.26
317,Parabel,26,RU,1578094228,95,58.71,81.5,260.02,3.4
318,Dubti,0,ET,1578094228,75,11.74,41.09,295.69,2.23
319,Saint-Francois,90,FR,1578094228,81,46.42,3.91,281.15,2.6
320,Vidim,75,CZ,1578094228,81,50.47,14.53,280.37,10.3
321,Am Timan,25,TD,1578094228,27,11.04,20.28,291.6,2.72
322,Havre-Saint-Pierre,1,CA,1578094229,92,50.23,-63.6,265.15,2.1
323,Flin Flon,90,CA,1578094229,85,54.77,-101.88,265.15,2.6
324,Saint-Lo,40,FR,1578094229,93,49.12,-1.09,284.82,3.6
325,Anadyr,0,RU,1578094229,73,64.73,177.51,238.15,6.0
326,Whitehorse,75,CA,1578094230,84,60.72,-135.06,258.71,3.6
327,Poso,100,ID,1578094230,87,-1.4,120.75,294.69,0.55
328,Sohag,54,EG,1578094230,57,26.55,31.7,282.15,2.6
329,Constitucion,5,MX,1578094230,32,23.99,-104.67,286.15,3.1
330,Ajdabiya,29,LY,1578094231,70,30.75,20.22,285.88,4.48
331,Maun,90,BW,1578094231,75,-19.99,23.42,295.89,1.16
332,Zonguldak,96,TR,1578094231,89,41.25,31.83,272.02,0.59
333,Sulangan,81,PH,1578094231,78,11.14,123.72,300.18,6.09
334,Bhinmal,0,IN,1578094231,54,25.01,72.27,284.17,1.53
335,Grandview,1,US,1578094232,62,38.89,-94.53,280.93,2.1
336,Kingaroy,1,AU,1578094232,50,-26.54,151.84,303.15,2.6
337,Liverpool,75,GB,1578093952,81,53.41,-2.98,280.93,5.1
338,Nelson Bay,0,AU,1578094232,49,-32.72,152.14,306.48,3.1
339,Haldia,53,IN,1578094232,94,22.03,88.06,289.22,1.46
340,Uzunovo,0,BG,1578094233,55,41.84,25.1,274.15,1.5
341,Sabha,0,LY,1578094233,72,27.03,14.43,280.47,2.56
342,Big Bend,65,SZ,1578094233,78,-26.79,31.94,300.15,0.5
343,Makakilo City,40,US,1578094234,61,21.35,-158.09,300.15,4.6
344,Tazovskiy,100,RU,1578094234,95,67.47,78.7,255.51,6.22
345,Port Hedland,1,AU,1578094234,66,-20.31,118.58,302.15,5.7
346,Dandong,0,CN,1578094234,72,40.12,124.37,266.87,2.61
347,Karlstad,41,SE,1578094234,64,59.38,13.5,276.48,7.2
348,Tshela,100,CD,1578094235,99,-4.99,12.94,295.71,0.85
349,Caranavi,100,BO,1578094235,96,-15.83,-67.57,290.72,1.02
350,Saint-Augustin,90,CA,1578094235,86,45.63,-73.98,277.59,2.1
351,Valdivia,6,CL,1578094235,68,-39.81,-73.25,295.15,5.1
352,Rome,14,IT,1578093584,86,41.89,12.48,281.48,1.5
353,Mangai,93,CD,1578094236,78,-4.07,19.59,295.12,0.12
354,Inongo,30,CD,1578094236,48,-1.93,18.29,294.1,0.64
355,Nikolskoye,75,RU,1578094237,80,59.7,30.79,278.15,5.0
356,Gunnedah,0,AU,1578094237,29,-30.98,150.25,306.15,5.7
357,Mount Isa,0,AU,1578094237,38,-20.73,139.49,305.15,4.1
358,Mezhdurechensk,100,RU,1578094237,95,53.69,88.07,266.89,2.16
359,Novobirilyussy,98,RU,1578094238,90,56.95,90.69,268.25,4.45
360,Aksu,90,KZ,1578094238,85,52.04,76.93,266.15,4.0
361,Ola,100,RU,1578094238,74,59.58,151.3,265.78,17.88
362,Ottawa,75,CA,1578093565,80,45.42,-75.69,277.15,2.6
363,Srednekolymsk,9,RU,1578094239,74,67.46,153.71,255.3,1.27
364,Nastola,28,FI,1578094239,80,60.95,25.93,274.15,6.7
365,Maglaj,20,BA,1578094239,92,44.55,18.1,268.15,0.5
366,Katsuura,40,JP,1578094240,70,33.93,134.5,282.04,6.2
367,Kichera,100,RU,1578094240,96,55.93,110.1,262.91,1.45
368,Igurubi,100,TZ,1578094240,75,-4.0,33.71,293.47,1.51
369,Vila Velha,48,BR,1578094240,69,-3.71,-38.6,303.15,3.1
370,Bahia Blanca,0,AR,1578094235,41,-38.72,-62.27,300.54,5.98
371,Avera,90,US,1578094241,89,33.19,-82.53,296.15,3.6
372,Bhiwandi,26,IN,1578094241,72,19.3,73.06,293.15,3.1
373,Padang,77,ID,1578094241,89,-0.92,100.36,293.98,2.77
374,Sao Jose da Coroa Grande,17,BR,1578094242,80,-8.9,-35.15,299.65,6.12
375,Esperance,75,AU,1578094242,59,-33.86,121.89,289.15,4.1
376,Alyangula,40,AU,1578094242,66,-13.85,136.42,304.15,3.6
377,Saiha,92,IN,1578094020,99,22.49,92.98,286.53,1.27
378,Ocampo,12,MX,1578094242,57,27.32,-102.4,280.07,4.49
379,Port Moresby,75,PG,1578094243,88,-9.47,147.16,299.15,5.1
380,Yangliuqing,0,CN,1578094243,73,39.14,117.0,268.15,1.0
381,Shitanjing,6,CN,1578094243,79,39.23,106.34,267.6,1.75
382,Faanui,68,PF,1578094243,79,-16.48,-151.75,300.73,5.55
383,Havoysund,75,NO,1578094243,73,71.0,24.66,273.15,12.3
384,Zarate,96,MX,1578094244,55,18.92,-101.44,289.82,1.34
385,Abay,90,KZ,1578094244,92,49.63,72.87,268.15,2.0
386,Te Anau,100,NZ,1578094244,62,-45.41,167.72,282.79,3.28
387,Katangli,100,RU,1578094245,93,51.71,143.23,256.26,4.2
388,Chimbote,51,PE,1578094245,72,-9.08,-78.59,295.64,3.02
389,Kamensk-Uralskiy,100,RU,1578094245,86,56.42,61.93,268.37,7.41
390,Selfoss,59,IS,1578094245,72,63.94,-21.0,265.15,2.1
391,Athabasca,99,CA,1578094246,94,54.72,-113.29,263.77,5.02
392,Paducah,90,US,1578094246,100,37.08,-88.6,285.37,2.6
393,Ambovombe,0,MG,1578094246,89,-25.18,46.09,295.92,3.48
394,Kununurra,75,AU,1578094246,74,-15.77,128.74,303.15,3.6
395,Panama City,1,US,1578094109,94,30.16,-85.65,297.15,6.7
396,Fairbanks,1,US,1578094073,75,64.84,-147.72,249.82,1.1
397,Nambiyur,40,IN,1578094247,78,11.36,77.32,297.15,1.08
398,Pachmarhi,55,IN,1578094247,96,22.47,78.44,285.44,1.09
399,Green River,90,US,1578093995,84,41.53,-109.47,274.82,6.2
400,Ambilobe,100,MG,1578094247,89,-13.19,49.05,298.28,0.76
401,Igarka,98,RU,1578094248,96,67.47,86.57,253.5,6.75
402,Nipawin,90,CA,1578094146,79,53.36,-104.02,266.15,4.6
403,Oriximina,99,BR,1578094248,84,-1.77,-55.87,298.77,2.01
404,Yelizovo,31,RU,1578094249,84,53.19,158.38,258.15,2.0
405,Port Elizabeth,75,US,1578094249,93,39.31,-74.98,283.71,2.23
406,Rondonopolis,61,BR,1578094249,85,-16.46,-54.64,298.15,0.61
407,Tucumcari,1,US,1578094249,39,35.17,-103.73,283.15,5.7
408,Lavrentiya,2,RU,1578094249,94,65.58,-170.99,246.38,4.14
409,Diu,57,IN,1578094250,57,20.71,70.98,294.21,6.21
410,Concepcion del Uruguay,0,AR,1578094250,62,-32.48,-58.24,298.15,0.89
411,Kamiiso,75,JP,1578094250,73,41.82,140.65,268.15,1.0
412,Bathsheba,40,BB,1578094250,74,13.22,-59.52,299.15,3.6
413,Shatalovo,82,RU,1578094251,92,53.28,37.58,270.83,6.59
414,Porbandar,79,IN,1578094251,58,21.64,69.61,293.94,7.57
415,Sindor,100,RU,1578094251,96,62.87,51.9,273.5,5.25
416,Kodyma,6,UA,1578094251,89,48.1,29.13,267.59,2.12
417,Kapit,100,MY,1578094252,98,2.02,112.94,296.02,0.75
418,Amapa,20,HN,1578094252,59,15.09,-87.97,305.15,5.1
419,Khorramshahr,40,IR,1578094252,93,30.43,48.18,289.15,2.1
420,Nabire,100,ID,1578094252,96,-3.36,135.5,296.64,0.98
421,Mabaruma,32,GY,1578094252,94,8.2,-59.78,294.39,1.12
422,Nouakchott,90,MR,1578094253,16,18.08,-15.98,292.15,4.1
423,Mugur-Aksy,0,RU,1578094253,48,50.38,90.44,254.84,1.99
424,Palmerston,75,AU,1578094253,66,-12.49,130.99,304.82,1.5
425,Marti,20,CU,1578094253,78,21.15,-77.45,299.15,5.1
426,Ishigaki,40,JP,1578094254,77,24.34,124.16,292.15,4.1
427,Diourbel,98,SN,1578094254,27,14.65,-16.23,298.15,2.1
428,San Rafael,16,AR,1578094254,28,-34.61,-68.33,304.09,7.31
429,Bonavista,95,CA,1578094254,83,48.65,-53.11,270.59,6.68
430,Palmer,75,AU,1578094255,68,-34.85,139.16,294.82,9.3
431,Duvan,99,RU,1578094255,88,55.69,57.9,262.97,6.91
432,Moose Factory,90,CA,1578094255,78,51.26,-80.61,264.15,3.1
433,Torbay,75,CA,1578094255,80,47.66,-52.73,273.15,12.3
434,Elk City,1,US,1578094255,27,35.41,-99.4,286.15,5.1
435,Sidi Ali,0,DZ,1578094256,88,36.1,0.42,280.96,0.82
436,Navolato,5,MX,1578094256,47,24.76,-107.7,297.15,1.68
437,Contamana,52,PE,1578094256,65,-7.35,-75.01,301.42,1.92
438,Brownsville,1,US,1578094256,25,25.91,-97.49,296.15,8.7
439,Lompoc,1,US,1578094256,28,34.64,-120.46,295.15,3.94
440,Rio Gallegos,20,AR,1578094257,54,-51.62,-69.22,286.15,5.1
441,Aksarka,94,RU,1578094257,97,66.56,67.8,257.52,4.08
442,Road Town,40,VG,1578094257,74,18.42,-64.62,299.26,4.1
443,Kiunga,100,PG,1578094257,94,-6.12,141.3,297.34,0.94
444,Cairns,75,AU,1578094189,83,-16.92,145.77,303.15,2.1
445,Lakes Entrance,0,AU,1578094258,41,-37.88,147.99,305.37,8.02
446,Chachapoyas,75,PE,1578094258,98,-6.23,-77.87,286.1,0.38
447,Pangoa,84,PE,1578094258,95,-12.12,-73.0,295.65,0.8
448,Evensk,100,RU,1578094258,69,61.92,159.24,259.27,5.22
449,Kampot,20,KH,1578094073,88,10.62,104.18,298.15,1.0
450,Luderitz,0,NA,1578094259,56,-26.65,15.16,293.15,7.7
451,Mirnyy,69,RU,1578094259,86,56.57,36.46,271.9,5.25
452,Belebey,100,RU,1578094259,94,54.12,54.12,269.43,8.26
453,Coquimbo,75,CL,1578094259,82,-29.95,-71.34,289.15,4.6
454,Sheltozero,100,RU,1578094260,80,61.37,35.37,276.77,8.72
455,Svit,75,SK,1578094260,92,49.06,20.2,268.71,1.0
456,Talara,7,PE,1578094099,100,-4.58,-81.27,290.15,8.2
457,Victoria,75,BN,1578094216,83,5.28,115.24,300.15,1.0
458,Mahon,75,IE,1578094260,87,51.89,-8.4,279.26,4.6
459,Northam,0,AU,1578094261,41,-31.65,116.67,288.15,9.3
460,Cajamarca,75,PE,1578094261,87,-7.16,-78.52,287.15,1.5
461,Venice,1,US,1578094216,100,27.1,-82.45,299.15,3.6
462,Jalu,8,LY,1578094261,85,29.03,21.55,281.93,4.64
463,Bunia,97,CD,1578094262,69,1.56,30.25,296.7,1.42
464,Hay River,40,CA,1578094262,75,60.82,-115.79,248.15,1.68
465,Mehamn,59,NO,1578094262,84,71.03,27.85,270.83,4.64
466,West Bay,90,CA,1578094262,62,49.34,-123.21,284.82,8.7
467,Rockhampton,75,AU,1578094263,51,-23.38,150.51,301.15,3.6
468,Pashkovskiy,9,RU,1578094263,92,45.02,39.1,274.82,3.0
469,Luanda,75,AO,1578094013,83,-8.83,13.24,300.15,2.6
470,Margate,92,AU,1578094264,33,-43.03,147.26,300.37,3.1
471,Brigantine,90,US,1578094264,87,39.41,-74.36,283.71,2.6
472,Vaitape,68,PF,1578094264,79,-16.52,-151.75,300.73,5.55
473,Verkhnevilyuysk,95,RU,1578094264,98,63.45,120.31,246.94,2.24
474,Hualmay,90,PE,1578094264,77,-11.1,-77.61,294.27,2.62
475,Tokur,0,RU,1578094265,90,53.13,132.9,241.43,0.8
476,Wanning,90,AT,1578094265,100,48.64,13.53,278.71,2.6
477,Marabba,7,SD,1578094265,22,12.35,32.18,291.99,6.16
478,Uray,100,RU,1578094265,90,60.13,64.8,266.75,5.6
479,Cabo Rojo,40,PR,1578094265,86,18.09,-67.15,298.71,5.7
480,La Rioja,0,AR,1578094051,41,-29.41,-66.86,297.57,4.54
481,Muisne,40,EC,1578094266,83,0.61,-80.02,300.15,4.1
482,Nishihara,1,JP,1578094266,74,35.74,139.53,283.15,1.5
483,Villena,75,ES,1578094266,81,38.64,-0.87,284.26,2.6
484,Guerrero Negro,0,MX,1578094266,32,27.97,-114.04,292.91,3.59
485,Nyurba,98,RU,1578094267,98,63.29,118.35,248.3,1.65
486,Olavarria,2,AR,1578094267,81,-36.89,-60.32,293.72,3.72
487,Lorengau,98,PG,1578094267,72,-2.02,147.27,302.38,2.52
488,Elmira,90,US,1578094267,93,42.09,-76.81,280.15,1.42
489,Balabac,96,PH,1578094268,77,7.99,117.06,300.47,8.19
490,Merauke,96,ID,1578094054,58,-8.49,140.4,303.96,1.9
491,Sampit,88,ID,1578094268,90,-2.54,112.95,297.72,1.05
492,Trinidad,75,BO,1578094261,88,-14.83,-64.9,300.15,0.92
493,Zhangjiakou,0,CN,1578094268,63,40.77,114.88,263.77,2.94
494,Mananjary,100,MG,1578094269,97,-19.16,46.8,290.85,1.13
495,Baruun-Urt,0,MN,1578094269,76,46.68,113.28,258.77,3.25
496,Nola,100,CF,1578094269,35,3.52,16.05,291.82,0.79
497,Sokoto,0,NG,1578094269,22,13.06,5.24,288.25,7.27
498,Nemuro,62,JP,1578094270,61,43.32,145.57,267.65,8.17
499,Cedar City,1,US,1578094270,60,37.68,-113.06,279.26,1.5
500,Sitka,9,US,1578094270,50,37.17,-99.65,279.26,2.9
501,Lasa,40,CY,1578094270,81,34.92,32.53,282.15,3.1
502,Pacific Grove,1,US,1578094082,42,36.62,-121.92,292.59,3.48
503,Uzyn,48,UA,1578094271,79,49.83,30.42,272.04,2.0
504,Pierre,1,US,1578094271,68,44.37,-100.35,271.15,4.6
505,Nichinan,0,JP,1578094271,70,31.65,131.31,279.15,3.6
506,Krabi,20,TH,1578094271,100,8.06,98.92,297.15,2.1
507,Curuguaty,13,PY,1578094271,74,-24.47,-55.69,297.89,2.06
508,Narsaq,100,GL,1578094272,34,60.91,-46.05,274.15,19.0
509,Neepawa,75,CA,1578094272,79,50.23,-99.46,267.15,4.1
510,Kabo,82,CF,1578094272,26,7.69,18.62,293.91,2.63
511,Nouadhibou,50,MR,1578094272,48,20.93,-17.03,290.15,3.6
512,Gimli,89,CA,1578094205,92,50.63,-96.99,272.04,3.1
513,Forest,90,US,1578094273,82,32.36,-89.47,289.15,1.5
514,Hegang,70,CN,1578094273,84,47.34,130.28,254.26,2.72
515,Quatre Cocos,40,MU,1578094273,100,-20.21,57.76,297.59,1.5
516,Dunedin,75,NZ,1578094108,54,-45.87,170.5,284.82,17.43
517,Sigli,22,ID,1578094273,78,5.38,95.96,299.87,3.32
518,Kingman,1,US,1578094274,24,35.19,-114.05,291.48,2.6
519,Warner Robins,75,US,1578094274,100,32.62,-83.6,295.15,4.6
520,Kaspiyskiy,0,RU,1578094274,79,45.39,47.37,272.58,2.95
521,Buala,15,SB,1578094274,77,-8.15,159.59,301.95,2.79
522,Mitu,94,IR,1578094275,87,36.2,46.09,271.15,1.84
523,Manchester,90,US,1578093969,80,43.0,-71.45,280.93,1.5
524,San Ignacio,88,PE,1578094275,94,-5.15,-79.0,291.41,1.18
525,Atlantic Beach,40,US,1578094275,69,30.33,-81.4,299.26,2.6
526,Kamenka,22,MD,1578094276,89,48.03,28.7,267.59,1.1
527,Necochea,0,AR,1578094276,65,-38.55,-58.74,293.27,6.84
528,Dezhou,18,CN,1578094276,52,37.45,116.31,273.19,0.96
529,Saint-Raymond,90,CA,1578094277,93,46.89,-71.84,275.93,2.6
530,Umm Lajj,0,SA,1578094277,59,25.02,37.27,285.78,4.82
531,Rapid Valley,90,US,1578094277,59,44.06,-103.15,275.37,5.7
532,Awjilah,8,LY,1578094277,85,29.14,21.3,281.93,4.64
533,Bandarbeyla,84,SO,1578094278,77,9.49,50.81,298.64,6.76
534,Hovd,90,NO,1578094278,80,63.83,10.7,278.15,13.4
535,Tateyama,75,JP,1578094278,93,36.66,137.31,278.15,0.5
536,Troitsko-Pechorsk,100,RU,1578094278,97,62.71,56.19,273.71,5.02
537,Bogatoye,99,RU,1578094279,93,53.06,51.33,270.72,6.33
538,Vredendal,0,ZA,1578094279,94,-31.68,18.49,288.04,2.24
539,Santana do Acarau,100,BR,1578094279,86,-3.46,-40.21,298.68,2.41
540,Porto Walter,97,BR,1578094279,87,-8.27,-72.74,296.31,0.78
541,Balaipungut,16,ID,1578094279,95,1.11,101.31,296.55,1.12
542,Iraquara,100,BR,1578094280,93,-12.24,-41.62,292.57,0.48
543,Aden,11,YE,1578094280,77,12.79,45.03,297.31,4.18
544,Suntar,100,RU,1578094280,97,62.16,117.65,255.11,1.49
545,Tevaitoa,47,PF,1578094281,79,-16.78,-151.5,300.6,5.45
546,Izamal,75,MX,1578094281,55,20.93,-89.02,305.15,4.1
547,Naqadeh,66,IR,1578094281,73,36.96,45.39,273.79,0.43
548,Alice Springs,90,AU,1578094281,33,-23.7,133.88,305.15,6.2
549,Port Blair,20,IN,1578094281,78,11.67,92.75,300.15,2.6
550,Deputatskiy,6,RU,1578094282,95,69.3,139.9,244.19,1.19
551,Tromso,75,NO,1578094282,91,69.65,18.96,273.15,6.7
552,Port Macquarie,0,AU,1578094282,45,-31.43,152.91,304.15,2.1
553,Sao Joao da Barra,98,BR,1578094282,90,-21.64,-41.05,297.66,2.75
554,Nantucket,75,US,1578094264,93,41.28,-70.1,281.15,4.1
